Time,SystStatus,FilterStatus,Unixtime,MicroSecondes,Latitude(Rad),Longitude(Rad),Height,VitesseNord,VitesseEast,VitesseDown,Acceleration_X,Acceleration_Y,Acceleration_Z,G,Roll,Pitch,Heading,AngularVelocity_X,AngularVelocity_Y,AngularVelocity_Z,LatitudeStandardDeviation,LongitudeStandardDeviation,HeightStandardDeviation,Secondes,TSmilli,Compteur100hz
1379564.0,0.0,24111.0,1619774340.0,559043.0,0.8218419099638862,-0.03332564513794832,178.83560180664062,18.11362648010254,18.859981536865234,-0.8267916440963745,-0.13516737520694733,1.1570281982421875,-1.2482686042785645,1.1183180809020996,13.950620651245117,1.1869713068008423,34.138465881347656,0.10426802933216095,0.04340650141239166,0.0247117318212986,0.26291337609291077,0.26288387179374695,0.4258800148963928,39706.0,1619774340559.043,681008.0
1379566.0,0.0,24111.0,1619774340.0,559043.0,0.8218419099638862,-0.03332564513794832,178.83560180664062,18.11362648010254,18.859981536865234,-0.8267916440963745,-0.13516737520694733,1.1570281982421875,-1.2482686042785645,1.1183180809020996,13.950620651245117,1.1869713068008423,34.138465881347656,0.10426802933216095,0.04340650141239166,0.0247117318212986,0.26291337609291077,0.26288387179374695,0.4258800148963928,39706.0,1619774340559.043,681009.0
1379568.0,0.0,24111.0,1619774340.0,559043.0,0.8218419099638862,-0.03332564513794832,178.83560180664062,18.11362648010254,18.859981536865234,-0.8267916440963745,-0.13516737520694733,1.1570281982421875,-1.2482686042785645,1.1183180809020996,13.950620651245117,1.1869713068008423,34.138465881347656,0.10426802933216095,0.04340650141239166,0.0247117318212986,0.26291337609291077,0.26288387179374695,0.4258800148963928,39706.0,1619774340559.043,681010.0
1379570.0,0.0,24111.0,1619774340.0,559043.0,0.8218419099638862,-0.03332564513794832,178.83560180664062,18.11362648010254,18.859981536865234,-0.8267916440963745,-0.13516737520694733,1.1570281982421875,-1.2482686042785645,1.1183180809020996,13.950620651245117,1.1869713068008423,34.138465881347656,0.10426802933216095,0.04340650141239166,0.0247117318212986,0.26291337609291077,0.26288387179374695,0.4258800148963928,39706.0,1619774340559.043,681011.0
1379572.0,0.0,24111.0,1619774340.0,559043.0,0.8218419099638862,-0.03332564513794832,178.83560180664062,18.11362648010254,18.859981536865234,-0.8267916440963745,-0.13516737520694733,1.1570281982421875,-1.2482686042785645,1.1183180809020996,13.950620651245117,1.1869713068008423,34.138465881347656,0.10426802933216095,0.04340650141239166,0.0247117318212986,0.26291337609291077,0.26288387179374695,0.4258800148963928,39706.0,1619774340559.043,681012.0
1379574.0,0.0,24111.0,1619774340.0,619045.0,0.8218420796872128,-0.033325387800902634,178.8877716064453,17.97236442565918,18.96763038635254,-0.8424237370491028,6.475536823272705,2.7637431621551514,-12.632158279418945,2.3561089038848877,14.92325210571289,1.4630600214004517,34.85481643676758,0.2130577266216278,0.4575219750404358,0.17358951270580292,0.26265600323677063,0.26262661814689636,0.42529961466789246,39706.0,1619774340619.045,681013.0
1379576.0,0.0,24111.0,1619774340.0,619045.0,0.8218420796872128,-0.033325387800902634,178.8877716064453,17.97236442565918,18.96763038635254,-0.8424237370491028,6.475536823272705,2.7637431621551514,-12.632158279418945,2.3561089038848877,14.92325210571289,1.4630600214004517,34.85481643676758,0.2130577266216278,0.4575219750404358,0.17358951270580292,0.26265600323677063,0.26262661814689636,0.42529961466789246,39706.0,1619774340619.045,681014.0
1379578.0,0.0,24111.0,1619774340.0,619045.0,0.8218420796872128,-0.033325387800902634,178.8877716064453,17.97236442565918,18.96763038635254,-0.8424237370491028,6.475536823272705,2.7637431621551514,-12.632158279418945,2.3561089038848877,14.92325210571289,1.4630600214004517,34.85481643676758,0.2130577266216278,0.4575219750404358,0.17358951270580292,0.26265600323677063,0.26262661814689636,0.42529961466789246,39706.0,1619774340619.045,681015.0
1379580.0,0.0,24111.0,1619774340.0,619045.0,0.8218420796872128,-0.033325387800902634,178.8877716064453,17.97236442565918,18.96763038635254,-0.8424237370491028,6.475536823272705,2.7637431621551514,-12.632158279418945,2.3561089038848877,14.92325210571289,1.4630600214004517,34.85481643676758,0.2130577266216278,0.4575219750404358,0.17358951270580292,0.26265600323677063,0.26262661814689636,0.42529961466789246,39706.0,1619774340619.045,681016.0
1379582.0,0.0,24111.0,1619774340.0,619045.0,0.8218420796872128,-0.033325387800902634,178.8877716064453,17.97236442565918,18.96763038635254,-0.8424237370491028,6.475536823272705,2.7637431621551514,-12.632158279418945,2.3561089038848877,14.92325210571289,1.4630600214004517,34.85481643676758,0.2130577266216278,0.4575219750404358,0.17358951270580292,0.26265600323677063,0.26262661814689636,0.42529961466789246,39706.0,1619774340619.045,681017.0
1379584.0,0.0,24111.0,1619774340.0,619045.0,0.8218420796872128,-0.033325387800902634,178.8877716064453,17.97236442565918,18.96763038635254,-0.8424237370491028,6.475536823272705,2.7637431621551514,-12.632158279418945,2.3561089038848877,14.92325210571289,1.4630600214004517,34.85481643676758,0.2130577266216278,0.4575219750404358,0.17358951270580292,0.26265600323677063,0.26262661814689636,0.42529961466789246,39706.0,1619774340619.045,681018.0
1379586.0,0.0,24111.0,1619774340.0,619045.0,0.8218420796872128,-0.033325387800902634,178.8877716064453,17.97236442565918,18.96763038635254,-0.8424237370491028,6.475536823272705,2.7637431621551514,-12.632158279418945,2.3561089038848877,14.92325210571289,1.4630600214004517,34.85481643676758,0.2130577266216278,0.4575219750404358,0.17358951270580292,0.26265600323677063,0.26262661814689636,0.42529961466789246,39706.0,1619774340619.045,681019.0
1379588.0,0.0,24111.0,1619774340.0,679375.0,0.8218422467054373,-0.03332512450472303,178.9375,17.76473617553711,19.066757202148438,-0.8581888675689697,-8.57760238647461,5.742395877838135,1.5964549779891968,1.2070305347442627,15.450871467590332,1.6975674629211426,35.50578308105469,0.06295876204967499,0.13955099880695343,0.1700679212808609,0.2624243199825287,0.2623952329158783,0.42476657032966614,39706.0,1619774340679.375,681020.0
1379590.0,0.0,24111.0,1619774340.0,679375.0,0.8218422467054373,-0.03332512450472303,178.9375,17.76473617553711,19.066757202148438,-0.8581888675689697,-8.57760238647461,5.742395877838135,1.5964549779891968,1.2070305347442627,15.450871467590332,1.6975674629211426,35.50578308105469,0.06295876204967499,0.13955099880695343,0.1700679212808609,0.2624243199825287,0.2623952329158783,0.42476657032966614,39706.0,1619774340679.375,681021.0
1379592.0,0.0,24111.0,1619774340.0,679375.0,0.8218422467054373,-0.03332512450472303,178.9375,17.76473617553711,19.066757202148438,-0.8581888675689697,-8.57760238647461,5.742395877838135,1.5964549779891968,1.2070305347442627,15.450871467590332,1.6975674629211426,35.50578308105469,0.06295876204967499,0.13955099880695343,0.1700679212808609,0.2624243199825287,0.2623952329158783,0.42476657032966614,39706.0,1619774340679.375,681022.0
1379594.0,0.0,24111.0,1619774340.0,679375.0,0.8218422467054373,-0.03332512450472303,178.9375,17.76473617553711,19.066757202148438,-0.8581888675689697,-8.57760238647461,5.742395877838135,1.5964549779891968,1.2070305347442627,15.450871467590332,1.6975674629211426,35.50578308105469,0.06295876204967499,0.13955099880695343,0.1700679212808609,0.2624243199825287,0.2623952329158783,0.42476657032966614,39706.0,1619774340679.375,681023.0
1379596.0,0.0,24111.0,1619774340.0,679375.0,0.8218422467054373,-0.03332512450472303,178.9375,17.76473617553711,19.066757202148438,-0.8581888675689697,-8.57760238647461,5.742395877838135,1.5964549779891968,1.2070305347442627,15.450871467590332,1.6975674629211426,35.50578308105469,0.06295876204967499,0.13955099880695343,0.1700679212808609,0.2624243199825287,0.2623952329158783,0.42476657032966614,39706.0,1619774340679.375,681024.0
1379598.0,0.0,24111.0,1619774340.0,679375.0,0.8218422467054373,-0.03332512450472303,178.9375,17.76473617553711,19.066757202148438,-0.8581888675689697,-8.57760238647461,5.742395877838135,1.5964549779891968,1.2070305347442627,15.450871467590332,1.6975674629211426,35.50578308105469,0.06295876204967499,0.13955099880695343,0.1700679212808609,0.2624243199825287,0.2623952329158783,0.42476657032966614,39706.0,1619774340679.375,681025.0
1379600.0,0.0,24111.0,1619774340.0,749193.0,0.8218424402686558,-0.033324817288166435,179.000244140625,17.577722549438477,19.23313331604004,-0.9459666609764099,6.398561954498291,1.1037492752075195,-7.148626804351807,1.831080675125122,16.157909393310547,2.044806718826294,36.201271057128906,0.24163463711738586,0.14405925571918488,0.12488667666912079,0.26280897855758667,0.2627795934677124,0.4257160425186157,39706.0,1619774340749.193,681026.0
1379602.0,0.0,24111.0,1619774340.0,749193.0,0.8218424402686558,-0.033324817288166435,179.000244140625,17.577722549438477,19.23313331604004,-0.9459666609764099,6.398561954498291,1.1037492752075195,-7.148626804351807,1.831080675125122,16.157909393310547,2.044806718826294,36.201271057128906,0.24163463711738586,0.14405925571918488,0.12488667666912079,0.26280897855758667,0.2627795934677124,0.4257160425186157,39706.0,1619774340749.193,681027.0
1379604.0,0.0,24111.0,1619774340.0,749193.0,0.8218424402686558,-0.033324817288166435,179.000244140625,17.577722549438477,19.23313331604004,-0.9459666609764099,6.398561954498291,1.1037492752075195,-7.148626804351807,1.831080675125122,16.157909393310547,2.044806718826294,36.201271057128906,0.24163463711738586,0.14405925571918488,0.12488667666912079,0.26280897855758667,0.2627795934677124,0.4257160425186157,39706.0,1619774340749.193,681028.0
1379606.0,0.0,24111.0,1619774340.0,749193.0,0.8218424402686558,-0.033324817288166435,179.000244140625,17.577722549438477,19.23313331604004,-0.9459666609764099,6.398561954498291,1.1037492752075195,-7.148626804351807,1.831080675125122,16.157909393310547,2.044806718826294,36.201271057128906,0.24163463711738586,0.14405925571918488,0.12488667666912079,0.26280897855758667,0.2627795934677124,0.4257160425186157,39706.0,1619774340749.193,681029.0
1379608.0,0.0,24111.0,1619774340.0,749193.0,0.8218424402686558,-0.033324817288166435,179.000244140625,17.577722549438477,19.23313331604004,-0.9459666609764099,6.398561954498291,1.1037492752075195,-7.148626804351807,1.831080675125122,16.157909393310547,2.044806718826294,36.201271057128906,0.24163463711738586,0.14405925571918488,0.12488667666912079,0.26280897855758667,0.2627795934677124,0.4257160425186157,39706.0,1619774340749.193,681030.0
1379610.0,0.0,24111.0,1619774340.0,749193.0,0.8218424402686558,-0.033324817288166435,179.000244140625,17.577722549438477,19.23313331604004,-0.9459666609764099,6.398561954498291,1.1037492752075195,-7.148626804351807,1.831080675125122,16.157909393310547,2.044806718826294,36.201271057128906,0.24163463711738586,0.14405925571918488,0.12488667666912079,0.26280897855758667,0.2627795934677124,0.4257160425186157,39706.0,1619774340749.193,681031.0
1379612.0,0.0,24111.0,1619774340.0,809032.0,0.821842601827909,-0.03332455445729649,179.0444793701172,17.371400833129883,19.352243423461914,-0.960429310798645,-6.499826431274414,5.557901859283447,-3.436016321182251,1.4744250774383545,16.88409996032715,2.1722171306610107,36.68526840209961,0.08705335110425949,0.2124888002872467,0.12143025547266006,0.2625548839569092,0.2625257670879364,0.4251292049884796,39706.0,1619774340809.032,681032.0
1379614.0,0.0,24111.0,1619774340.0,809032.0,0.821842601827909,-0.03332455445729649,179.0444793701172,17.371400833129883,19.352243423461914,-0.960429310798645,-6.499826431274414,5.557901859283447,-3.436016321182251,1.4744250774383545,16.88409996032715,2.1722171306610107,36.68526840209961,0.08705335110425949,0.2124888002872467,0.12143025547266006,0.2625548839569092,0.2625257670879364,0.4251292049884796,39706.0,1619774340809.032,681033.0
1379616.0,0.0,24111.0,1619774340.0,809032.0,0.821842601827909,-0.03332455445729649,179.0444793701172,17.371400833129883,19.352243423461914,-0.960429310798645,-6.499826431274414,5.557901859283447,-3.436016321182251,1.4744250774383545,16.88409996032715,2.1722171306610107,36.68526840209961,0.08705335110425949,0.2124888002872467,0.12143025547266006,0.2625548839569092,0.2625257670879364,0.4251292049884796,39706.0,1619774340809.032,681034.0
1379618.0,0.0,24111.0,1619774340.0,809032.0,0.821842601827909,-0.03332455445729649,179.0444793701172,17.371400833129883,19.352243423461914,-0.960429310798645,-6.499826431274414,5.557901859283447,-3.436016321182251,1.4744250774383545,16.88409996032715,2.1722171306610107,36.68526840209961,0.08705335110425949,0.2124888002872467,0.12143025547266006,0.2625548839569092,0.2625257670879364,0.4251292049884796,39706.0,1619774340809.032,681035.0
1379620.0,0.0,24111.0,1619774340.0,809032.0,0.821842601827909,-0.03332455445729649,179.0444793701172,17.371400833129883,19.352243423461914,-0.960429310798645,-6.499826431274414,5.557901859283447,-3.436016321182251,1.4744250774383545,16.88409996032715,2.1722171306610107,36.68526840209961,0.08705335110425949,0.2124888002872467,0.12143025547266006,0.2625548839569092,0.2625257670879364,0.4251292049884796,39706.0,1619774340809.032,681036.0
1379622.0,0.0,24111.0,1619774340.0,809032.0,0.821842601827909,-0.03332455445729649,179.0444793701172,17.371400833129883,19.352243423461914,-0.960429310798645,-6.499826431274414,5.557901859283447,-3.436016321182251,1.4744250774383545,16.88409996032715,2.1722171306610107,36.68526840209961,0.08705335110425949,0.2124888002872467,0.12143025547266006,0.2625548839569092,0.2625257670879364,0.4251292049884796,39706.0,1619774340809.032,681037.0
1379624.0,0.0,24111.0,1619774340.0,869033.0,0.8218427639941805,-0.033324286961534215,179.10977172851562,17.156633377075195,19.565473556518555,-1.2469420433044434,2.738295316696167,2.814204216003418,-6.129639625549316,1.6109918355941772,17.521560668945312,2.7000772953033447,37.214454650878906,0.15928882360458374,-0.011063197627663612,0.06278413534164429,0.26289528608322144,0.26286593079566956,0.4259660840034485,39706.0,1619774340869.033,681038.0
1379626.0,0.0,24111.0,1619774340.0,869033.0,0.8218427639941805,-0.033324286961534215,179.10977172851562,17.156633377075195,19.565473556518555,-1.2469420433044434,2.738295316696167,2.814204216003418,-6.129639625549316,1.6109918355941772,17.521560668945312,2.7000772953033447,37.214454650878906,0.15928882360458374,-0.011063197627663612,0.06278413534164429,0.26289528608322144,0.26286593079566956,0.4259660840034485,39706.0,1619774340869.033,681039.0
1379628.0,0.0,24111.0,1619774340.0,869033.0,0.8218427639941805,-0.033324286961534215,179.10977172851562,17.156633377075195,19.565473556518555,-1.2469420433044434,2.738295316696167,2.814204216003418,-6.129639625549316,1.6109918355941772,17.521560668945312,2.7000772953033447,37.214454650878906,0.15928882360458374,-0.011063197627663612,0.06278413534164429,0.26289528608322144,0.26286593079566956,0.4259660840034485,39706.0,1619774340869.033,681040.0
1379630.0,0.0,24111.0,1619774340.0,869033.0,0.8218427639941805,-0.033324286961534215,179.10977172851562,17.156633377075195,19.565473556518555,-1.2469420433044434,2.738295316696167,2.814204216003418,-6.129639625549316,1.6109918355941772,17.521560668945312,2.7000772953033447,37.214454650878906,0.15928882360458374,-0.011063197627663612,0.06278413534164429,0.26289528608322144,0.26286593079566956,0.4259660840034485,39706.0,1619774340869.033,681041.0
1379632.0,0.0,24111.0,1619774340.0,869033.0,0.8218427639941805,-0.033324286961534215,179.10977172851562,17.156633377075195,19.565473556518555,-1.2469420433044434,2.738295316696167,2.814204216003418,-6.129639625549316,1.6109918355941772,17.521560668945312,2.7000772953033447,37.214454650878906,0.15928882360458374,-0.011063197627663612,0.06278413534164429,0.26289528608322144,0.26286593079566956,0.4259660840034485,39706.0,1619774340869.033,681042.0
1379634.0,0.0,24111.0,1619774340.0,869033.0,0.8218427639941805,-0.033324286961534215,179.10977172851562,17.156633377075195,19.565473556518555,-1.2469420433044434,2.738295316696167,2.814204216003418,-6.129639625549316,1.6109918355941772,17.521560668945312,2.7000772953033447,37.214454650878906,0.15928882360458374,-0.011063197627663612,0.06278413534164429,0.26289528608322144,0.26286593079566956,0.4259660840034485,39706.0,1619774340869.033,681043.0
1379636.0,0.0,24111.0,1619774340.0,929034.0,0.8218429227019384,-0.03332401903597729,179.19476318359375,16.89457130432129,19.7188720703125,-1.488435983657837,-7.061946392059326,6.903658390045166,-8.30093765258789,1.9597477912902832,17.879905700683594,2.6751534938812256,37.4490852355957,0.03150593861937523,0.13962046802043915,0.07593343406915665,0.26263657212257385,0.26260748505592346,0.42537322640419006,39706.0,1619774340929.034,681044.0
1379638.0,0.0,24111.0,1619774340.0,929034.0,0.8218429227019384,-0.03332401903597729,179.19476318359375,16.89457130432129,19.7188720703125,-1.488435983657837,-7.061946392059326,6.903658390045166,-8.30093765258789,1.9597477912902832,17.879905700683594,2.6751534938812256,37.4490852355957,0.03150593861937523,0.13962046802043915,0.07593343406915665,0.26263657212257385,0.26260748505592346,0.42537322640419006,39706.0,1619774340929.034,681045.0
1379640.0,0.0,24111.0,1619774340.0,929034.0,0.8218429227019384,-0.03332401903597729,179.19476318359375,16.89457130432129,19.7188720703125,-1.488435983657837,-7.061946392059326,6.903658390045166,-8.30093765258789,1.9597477912902832,17.879905700683594,2.6751534938812256,37.4490852355957,0.03150593861937523,0.13962046802043915,0.07593343406915665,0.26263657212257385,0.26260748505592346,0.42537322640419006,39706.0,1619774340929.034,681046.0
1379642.0,0.0,24111.0,1619774340.0,929034.0,0.8218429227019384,-0.03332401903597729,179.19476318359375,16.89457130432129,19.7188720703125,-1.488435983657837,-7.061946392059326,6.903658390045166,-8.30093765258789,1.9597477912902832,17.879905700683594,2.6751534938812256,37.4490852355957,0.03150593861937523,0.13962046802043915,0.07593343406915665,0.26263657212257385,0.26260748505592346,0.42537322640419006,39706.0,1619774340929.034,681047.0
1379644.0,0.0,24111.0,1619774340.0,929034.0,0.8218429227019384,-0.03332401903597729,179.19476318359375,16.89457130432129,19.7188720703125,-1.488435983657837,-7.061946392059326,6.903658390045166,-8.30093765258789,1.9597477912902832,17.879905700683594,2.6751534938812256,37.4490852355957,0.03150593861937523,0.13962046802043915,0.07593343406915665,0.26263657212257385,0.26260748505592346,0.42537322640419006,39706.0,1619774340929.034,681048.0
1379646.0,0.0,24111.0,1619774340.0,929034.0,0.8218429227019384,-0.03332401903597729,179.19476318359375,16.89457130432129,19.7188720703125,-1.488435983657837,-7.061946392059326,6.903658390045166,-8.30093765258789,1.9597477912902832,17.879905700683594,2.6751534938812256,37.4490852355957,0.03150593861937523,0.13962046802043915,0.07593343406915665,0.26263657212257385,0.26260748505592346,0.42537322640419006,39962.0,1619774340929.034,681049.0
1379648.0,0.0,24111.0,1619774340.0,989076.0,0.8218430774986178,-0.033323749850175,179.26556396484375,16.654685974121094,19.8906307220459,-1.7272093296051025,4.710817337036133,-1.4688280820846558,-3.9568891525268555,1.522242546081543,18.496746063232422,2.498089551925659,37.577022552490234,0.19710305333137512,-0.29473578929901123,0.03779158368706703,0.26239776611328125,0.26236897706985474,0.42481517791748047,39962.0,1619774340989.076,681050.0
1379650.0,0.0,24111.0,1619774340.0,989076.0,0.8218430774986178,-0.033323749850175,179.26556396484375,16.654685974121094,19.8906307220459,-1.7272093296051025,4.710817337036133,-1.4688280820846558,-3.9568891525268555,1.522242546081543,18.496746063232422,2.498089551925659,37.577022552490234,0.19710305333137512,-0.29473578929901123,0.03779158368706703,0.26239776611328125,0.26236897706985474,0.42481517791748047,39962.0,1619774340989.076,681051.0
1379652.0,0.0,24111.0,1619774340.0,989076.0,0.8218430774986178,-0.033323749850175,179.26556396484375,16.654685974121094,19.8906307220459,-1.7272093296051025,4.710817337036133,-1.4688280820846558,-3.9568891525268555,1.522242546081543,18.496746063232422,2.498089551925659,37.577022552490234,0.19710305333137512,-0.29473578929901123,0.03779158368706703,0.26239776611328125,0.26236897706985474,0.42481517791748047,39962.0,1619774340989.076,681052.0
1379654.0,0.0,24111.0,1619774340.0,989076.0,0.8218430774986178,-0.033323749850175,179.26556396484375,16.654685974121094,19.8906307220459,-1.7272093296051025,4.710817337036133,-1.4688280820846558,-3.9568891525268555,1.522242546081543,18.496746063232422,2.498089551925659,37.577022552490234,0.19710305333137512,-0.29473578929901123,0.03779158368706703,0.26239776611328125,0.26236897706985474,0.42481517791748047,39962.0,1619774340989.076,681053.0
1379656.0,0.0,24111.0,1619774340.0,989076.0,0.8218430774986178,-0.033323749850175,179.26556396484375,16.654685974121094,19.8906307220459,-1.7272093296051025,4.710817337036133,-1.4688280820846558,-3.9568891525268555,1.522242546081543,18.496746063232422,2.498089551925659,37.577022552490234,0.19710305333137512,-0.29473578929901123,0.03779158368706703,0.26239776611328125,0.26236897706985474,0.42481517791748047,39962.0,1619774340989.076,681054.0
1379658.0,0.0,24111.0,1619774340.0,989076.0,0.8218430774986178,-0.033323749850175,179.26556396484375,16.654685974121094,19.8906307220459,-1.7272093296051025,4.710817337036133,-1.4688280820846558,-3.9568891525268555,1.522242546081543,18.496746063232422,2.498089551925659,37.577022552490234,0.19710305333137512,-0.29473578929901123,0.03779158368706703,0.26239776611328125,0.26236897706985474,0.42481517791748047,39962.0,1619774340989.076,681055.0
1379660.0,0.0,24111.0,1619774341.0,49251.0,0.8218432354588309,-0.03332347097402856,179.3700714111328,16.44088363647461,20.019926071166992,-1.7357865571975708,-0.3253631889820099,7.284059047698975,-14.475147247314453,2.45300030708313,19.429140090942383,1.9069080352783203,37.5538330078125,0.2998998165130615,0.2516961991786957,0.049857351928949356,0.26272132992744446,0.26269227266311646,0.4256227910518646,39962.0,1619774341049.251,681056.0
1379662.0,0.0,24111.0,1619774341.0,49251.0,0.8218432354588309,-0.03332347097402856,179.3700714111328,16.44088363647461,20.019926071166992,-1.7357865571975708,-0.3253631889820099,7.284059047698975,-14.475147247314453,2.45300030708313,19.429140090942383,1.9069080352783203,37.5538330078125,0.2998998165130615,0.2516961991786957,0.049857351928949356,0.26272132992744446,0.26269227266311646,0.4256227910518646,39962.0,1619774341049.251,681057.0
1379664.0,0.0,24111.0,1619774341.0,49251.0,0.8218432354588309,-0.03332347097402856,179.3700714111328,16.44088363647461,20.019926071166992,-1.7357865571975708,-0.3253631889820099,7.284059047698975,-14.475147247314453,2.45300030708313,19.429140090942383,1.9069080352783203,37.5538330078125,0.2998998165130615,0.2516961991786957,0.049857351928949356,0.26272132992744446,0.26269227266311646,0.4256227910518646,39962.0,1619774341049.251,681058.0
1379666.0,0.0,24111.0,1619774341.0,49251.0,0.8218432354588309,-0.03332347097402856,179.3700714111328,16.44088363647461,20.019926071166992,-1.7357865571975708,-0.3253631889820099,7.284059047698975,-14.475147247314453,2.45300030708313,19.429140090942383,1.9069080352783203,37.5538330078125,0.2998998165130615,0.2516961991786957,0.049857351928949356,0.26272132992744446,0.26269227266311646,0.4256227910518646,39962.0,1619774341049.251,681059.0
1379668.0,0.0,24111.0,1619774341.0,49251.0,0.8218432354588309,-0.03332347097402856,179.3700714111328,16.44088363647461,20.019926071166992,-1.7357865571975708,-0.3253631889820099,7.284059047698975,-14.475147247314453,2.45300030708313,19.429140090942383,1.9069080352783203,37.5538330078125,0.2998998165130615,0.2516961991786957,0.049857351928949356,0.26272132992744446,0.26269227266311646,0.4256227910518646,39962.0,1619774341049.251,681060.0
1379670.0,0.0,24111.0,1619774341.0,49251.0,0.8218432354588309,-0.03332347097402856,179.3700714111328,16.44088363647461,20.019926071166992,-1.7357865571975708,-0.3253631889820099,7.284059047698975,-14.475147247314453,2.45300030708313,19.429140090942383,1.9069080352783203,37.5538330078125,0.2998998165130615,0.2516961991786957,0.049857351928949356,0.26272132992744446,0.26269227266311646,0.4256227910518646,39962.0,1619774341049.251,681061.0
1379672.0,0.0,24111.0,1619774341.0,109072.0,0.8218433859130547,-0.03332319568201171,179.4873504638672,16.252805709838867,20.169193267822266,-1.6937061548233032,-2.334486961364746,3.1155941486358643,12.791242599487305,0.42597857117652893,20.34325408935547,1.3524638414382935,37.4686164855957,0.18914438784122467,-0.5608795881271362,0.02444305643439293,0.26247018575668335,0.2624415457248688,0.4250449240207672,39962.0,1619774341109.072,681062.0
1379674.0,0.0,24111.0,1619774341.0,109072.0,0.8218433859130547,-0.03332319568201171,179.4873504638672,16.252805709838867,20.169193267822266,-1.6937061548233032,-2.334486961364746,3.1155941486358643,12.791242599487305,0.42597857117652893,20.34325408935547,1.3524638414382935,37.4686164855957,0.18914438784122467,-0.5608795881271362,0.02444305643439293,0.26247018575668335,0.2624415457248688,0.4250449240207672,39962.0,1619774341109.072,681063.0
1379676.0,0.0,24111.0,1619774341.0,109072.0,0.8218433859130547,-0.03332319568201171,179.4873504638672,16.252805709838867,20.169193267822266,-1.6937061548233032,-2.334486961364746,3.1155941486358643,12.791242599487305,0.42597857117652893,20.34325408935547,1.3524638414382935,37.4686164855957,0.18914438784122467,-0.5608795881271362,0.02444305643439293,0.26247018575668335,0.2624415457248688,0.4250449240207672,39962.0,1619774341109.072,681064.0
1379678.0,0.0,24111.0,1619774341.0,109072.0,0.8218433859130547,-0.03332319568201171,179.4873504638672,16.252805709838867,20.169193267822266,-1.6937061548233032,-2.334486961364746,3.1155941486358643,12.791242599487305,0.42597857117652893,20.34325408935547,1.3524638414382935,37.4686164855957,0.18914438784122467,-0.5608795881271362,0.02444305643439293,0.26247018575668335,0.2624415457248688,0.4250449240207672,39962.0,1619774341109.072,681065.0
1379680.0,0.0,24111.0,1619774341.0,109072.0,0.8218433859130547,-0.03332319568201171,179.4873504638672,16.252805709838867,20.169193267822266,-1.6937061548233032,-2.334486961364746,3.1155941486358643,12.791242599487305,0.42597857117652893,20.34325408935547,1.3524638414382935,37.4686164855957,0.18914438784122467,-0.5608795881271362,0.02444305643439293,0.26247018575668335,0.2624415457248688,0.4250449240207672,39962.0,1619774341109.072,681066.0
1379682.0,0.0,24111.0,1619774341.0,109072.0,0.8218433859130547,-0.03332319568201171,179.4873504638672,16.252805709838867,20.169193267822266,-1.6937061548233032,-2.334486961364746,3.1155941486358643,12.791242599487305,0.42597857117652893,20.34325408935547,1.3524638414382935,37.4686164855957,0.18914438784122467,-0.5608795881271362,0.02444305643439293,0.26247018575668335,0.2624415457248688,0.4250449240207672,39962.0,1619774341109.072,681067.0
1379684.0,0.0,24111.0,1619774341.0,169035.0,0.8218435378098877,-0.0333229177077121,179.5839080810547,16.102903366088867,20.276491165161133,-1.5690399408340454,1.870460867881775,5.85634183883667,-13.011761665344238,2.2807788848876953,21.20490074157715,1.1188576221466064,37.51547622680664,0.32866379618644714,0.4831533432006836,0.04486987739801407,0.2627973258495331,0.26276862621307373,0.4258464574813843,39962.0,1619774341169.035,681068.0
1379686.0,0.0,24111.0,1619774341.0,169035.0,0.8218435378098877,-0.0333229177077121,179.5839080810547,16.102903366088867,20.276491165161133,-1.5690399408340454,1.870460867881775,5.85634183883667,-13.011761665344238,2.2807788848876953,21.20490074157715,1.1188576221466064,37.51547622680664,0.32866379618644714,0.4831533432006836,0.04486987739801407,0.2627973258495331,0.26276862621307373,0.4258464574813843,39962.0,1619774341169.035,681069.0
1379688.0,0.0,24111.0,1619774341.0,169035.0,0.8218435378098877,-0.0333229177077121,179.5839080810547,16.102903366088867,20.276491165161133,-1.5690399408340454,1.870460867881775,5.85634183883667,-13.011761665344238,2.2807788848876953,21.20490074157715,1.1188576221466064,37.51547622680664,0.32866379618644714,0.4831533432006836,0.04486987739801407,0.2627973258495331,0.26276862621307373,0.4258464574813843,39962.0,1619774341169.035,681070.0
1379690.0,0.0,24111.0,1619774341.0,169035.0,0.8218435378098877,-0.0333229177077121,179.5839080810547,16.102903366088867,20.276491165161133,-1.5690399408340454,1.870460867881775,5.85634183883667,-13.011761665344238,2.2807788848876953,21.20490074157715,1.1188576221466064,37.51547622680664,0.32866379618644714,0.4831533432006836,0.04486987739801407,0.2627973258495331,0.26276862621307373,0.4258464574813843,39962.0,1619774341169.035,681071.0
1379692.0,0.0,24111.0,1619774341.0,169035.0,0.8218435378098877,-0.0333229177077121,179.5839080810547,16.102903366088867,20.276491165161133,-1.5690399408340454,1.870460867881775,5.85634183883667,-13.011761665344238,2.2807788848876953,21.20490074157715,1.1188576221466064,37.51547622680664,0.32866379618644714,0.4831533432006836,0.04486987739801407,0.2627973258495331,0.26276862621307373,0.4258464574813843,39962.0,1619774341169.035,681072.0
1379694.0,0.0,24111.0,1619774341.0,169035.0,0.8218435378098877,-0.0333229177077121,179.5839080810547,16.102903366088867,20.276491165161133,-1.5690399408340454,1.870460867881775,5.85634183883667,-13.011761665344238,2.2807788848876953,21.20490074157715,1.1188576221466064,37.51547622680664,0.32866379618644714,0.4831533432006836,0.04486987739801407,0.2627973258495331,0.26276862621307373,0.4258464574813843,39962.0,1619774341169.035,681073.0
1379696.0,0.0,24111.0,1619774341.0,229033.0,0.8218436832971648,-0.033322636413636766,179.70669555664062,15.905305862426758,20.442075729370117,-1.5075870752334595,-5.859974384307861,4.161227703094482,12.452779769897461,0.6707884073257446,21.74105453491211,1.2849785089492798,37.71498107910156,0.24382416903972626,-0.27603939175605774,0.05724234879016876,0.26253601908683777,0.2625074088573456,0.42525240778923035,39962.0,1619774341229.033,681074.0
1379698.0,0.0,24111.0,1619774341.0,229033.0,0.8218436832971648,-0.033322636413636766,179.70669555664062,15.905305862426758,20.442075729370117,-1.5075870752334595,-5.859974384307861,4.161227703094482,12.452779769897461,0.6707884073257446,21.74105453491211,1.2849785089492798,37.71498107910156,0.24382416903972626,-0.27603939175605774,0.05724234879016876,0.26253601908683777,0.2625074088573456,0.42525240778923035,39962.0,1619774341229.033,681075.0
1379700.0,0.0,24111.0,1619774341.0,229033.0,0.8218436832971648,-0.033322636413636766,179.70669555664062,15.905305862426758,20.442075729370117,-1.5075870752334595,-5.859974384307861,4.161227703094482,12.452779769897461,0.6707884073257446,21.74105453491211,1.2849785089492798,37.71498107910156,0.24382416903972626,-0.27603939175605774,0.05724234879016876,0.26253601908683777,0.2625074088573456,0.42525240778923035,39962.0,1619774341229.033,681076.0
1379702.0,0.0,24111.0,1619774341.0,229033.0,0.8218436832971648,-0.033322636413636766,179.70669555664062,15.905305862426758,20.442075729370117,-1.5075870752334595,-5.859974384307861,4.161227703094482,12.452779769897461,0.6707884073257446,21.74105453491211,1.2849785089492798,37.71498107910156,0.24382416903972626,-0.27603939175605774,0.05724234879016876,0.26253601908683777,0.2625074088573456,0.42525240778923035,39962.0,1619774341229.033,681077.0
1379704.0,0.0,24111.0,1619774341.0,229033.0,0.8218436832971648,-0.033322636413636766,179.70669555664062,15.905305862426758,20.442075729370117,-1.5075870752334595,-5.859974384307861,4.161227703094482,12.452779769897461,0.6707884073257446,21.74105453491211,1.2849785089492798,37.71498107910156,0.24382416903972626,-0.27603939175605774,0.05724234879016876,0.26253601908683777,0.2625074088573456,0.42525240778923035,39962.0,1619774341229.033,681078.0
1379706.0,0.0,24111.0,1619774341.0,229033.0,0.8218436832971648,-0.033322636413636766,179.70669555664062,15.905305862426758,20.442075729370117,-1.5075870752334595,-5.859974384307861,4.161227703094482,12.452779769897461,0.6707884073257446,21.74105453491211,1.2849785089492798,37.71498107910156,0.24382416903972626,-0.27603939175605774,0.05724234879016876,0.26253601908683777,0.2625074088573456,0.42525240778923035,39962.0,1619774341229.033,681079.0
1379708.0,0.0,24111.0,1619774341.0,289033.0,0.821843828641892,-0.03332235806631328,179.78482055664062,15.663227081298828,20.598838806152344,-1.531807780265808,6.425526142120361,3.5226800441741943,-11.78311538696289,2.2329459190368652,22.487852096557617,1.7432456016540527,38.06774139404297,0.2332790642976761,0.4074755012989044,0.022703375667333603,0.26229989528656006,0.26227185130119324,0.42467910051345825,39962.0,1619774341289.033,681080.0
1379710.0,0.0,24111.0,1619774341.0,289033.0,0.821843828641892,-0.03332235806631328,179.78482055664062,15.663227081298828,20.598838806152344,-1.531807780265808,6.425526142120361,3.5226800441741943,-11.78311538696289,2.2329459190368652,22.487852096557617,1.7432456016540527,38.06774139404297,0.2332790642976761,0.4074755012989044,0.022703375667333603,0.26229989528656006,0.26227185130119324,0.42467910051345825,39962.0,1619774341289.033,681081.0
1379712.0,0.0,24111.0,1619774341.0,289033.0,0.821843828641892,-0.03332235806631328,179.78482055664062,15.663227081298828,20.598838806152344,-1.531807780265808,6.425526142120361,3.5226800441741943,-11.78311538696289,2.2329459190368652,22.487852096557617,1.7432456016540527,38.06774139404297,0.2332790642976761,0.4074755012989044,0.022703375667333603,0.26229989528656006,0.26227185130119324,0.42467910051345825,39962.0,1619774341289.033,681082.0
1379714.0,0.0,24111.0,1619774341.0,289033.0,0.821843828641892,-0.03332235806631328,179.78482055664062,15.663227081298828,20.598838806152344,-1.531807780265808,6.425526142120361,3.5226800441741943,-11.78311538696289,2.2329459190368652,22.487852096557617,1.7432456016540527,38.06774139404297,0.2332790642976761,0.4074755012989044,0.022703375667333603,0.26229989528656006,0.26227185130119324,0.42467910051345825,39962.0,1619774341289.033,681083.0
1379716.0,0.0,24111.0,1619774341.0,289033.0,0.821843828641892,-0.03332235806631328,179.78482055664062,15.663227081298828,20.598838806152344,-1.531807780265808,6.425526142120361,3.5226800441741943,-11.78311538696289,2.2329459190368652,22.487852096557617,1.7432456016540527,38.06774139404297,0.2332790642976761,0.4074755012989044,0.022703375667333603,0.26229989528656006,0.26227185130119324,0.42467910051345825,39962.0,1619774341289.033,681084.0
1379718.0,0.0,24111.0,1619774341.0,289033.0,0.821843828641892,-0.03332235806631328,179.78482055664062,15.663227081298828,20.598838806152344,-1.531807780265808,6.425526142120361,3.5226800441741943,-11.78311538696289,2.2329459190368652,22.487852096557617,1.7432456016540527,38.06774139404297,0.2332790642976761,0.4074755012989044,0.022703375667333603,0.26229989528656006,0.26227185130119324,0.42467910051345825,39962.0,1619774341289.033,681085.0
1379720.0,0.0,24111.0,1619774341.0,289033.0,0.821843828641892,-0.03332235806631328,179.78482055664062,15.663227081298828,20.598838806152344,-1.531807780265808,6.425526142120361,3.5226800441741943,-11.78311538696289,2.2329459190368652,22.487852096557617,1.7432456016540527,38.06774139404297,0.2332790642976761,0.4074755012989044,0.022703375667333603,0.26229989528656006,0.26227185130119324,0.42467910051345825,39962.0,1619774341289.033,681086.0
1379722.0,0.0,24111.0,1619774341.0,349309.0,0.8218439768782931,-0.03332206838269988,179.8839111328125,15.379789352416992,20.850221633911133,-1.763641119003296,-4.686173915863037,4.009687423706055,-11.489543914794922,2.1402230262756348,22.608970642089844,2.080552101135254,38.288326263427734,-0.055972203612327576,0.26213258504867554,0.04532301053404808,0.2626093327999115,0.2625807821750641,0.4254745841026306,39962.0,1619774341349.309,681087.0
1379724.0,0.0,24111.0,1619774341.0,349309.0,0.8218439768782931,-0.03332206838269988,179.8839111328125,15.379789352416992,20.850221633911133,-1.763641119003296,-4.686173915863037,4.009687423706055,-11.489543914794922,2.1402230262756348,22.608970642089844,2.080552101135254,38.288326263427734,-0.055972203612327576,0.26213258504867554,0.04532301053404808,0.2626093327999115,0.2625807821750641,0.4254745841026306,39962.0,1619774341349.309,681088.0
1379726.0,0.0,24111.0,1619774341.0,349309.0,0.8218439768782931,-0.03332206838269988,179.8839111328125,15.379789352416992,20.850221633911133,-1.763641119003296,-4.686173915863037,4.009687423706055,-11.489543914794922,2.1402230262756348,22.608970642089844,2.080552101135254,38.288326263427734,-0.055972203612327576,0.26213258504867554,0.04532301053404808,0.2626093327999115,0.2625807821750641,0.4254745841026306,39962.0,1619774341349.309,681089.0
1379728.0,0.0,24111.0,1619774341.0,349309.0,0.8218439768782931,-0.03332206838269988,179.8839111328125,15.379789352416992,20.850221633911133,-1.763641119003296,-4.686173915863037,4.009687423706055,-11.489543914794922,2.1402230262756348,22.608970642089844,2.080552101135254,38.288326263427734,-0.055972203612327576,0.26213258504867554,0.04532301053404808,0.2626093327999115,0.2625807821750641,0.4254745841026306,39962.0,1619774341349.309,681090.0
1379730.0,0.0,24111.0,1619774341.0,349309.0,0.8218439768782931,-0.03332206838269988,179.8839111328125,15.379789352416992,20.850221633911133,-1.763641119003296,-4.686173915863037,4.009687423706055,-11.489543914794922,2.1402230262756348,22.608970642089844,2.080552101135254,38.288326263427734,-0.055972203612327576,0.26213258504867554,0.04532301053404808,0.2626093327999115,0.2625807821750641,0.4254745841026306,39962.0,1619774341349.309,681091.0
1379732.0,0.0,24111.0,1619774341.0,349309.0,0.8218439768782931,-0.03332206838269988,179.8839111328125,15.379789352416992,20.850221633911133,-1.763641119003296,-4.686173915863037,4.009687423706055,-11.489543914794922,2.1402230262756348,22.608970642089844,2.080552101135254,38.288326263427734,-0.055972203612327576,0.26213258504867554,0.04532301053404808,0.2626093327999115,0.2625807821750641,0.4254745841026306,39962.0,1619774341349.309,681092.0
1379734.0,0.0,24111.0,1619774341.0,419080.0,0.8218441418464818,-0.03332173863673681,179.9875030517578,15.06113338470459,21.05034637451172,-2.026393413543701,-2.0891435146331787,1.2756710052490234,8.339548110961914,0.31893253326416016,22.546228408813477,1.9009865522384644,38.28940200805664,0.02252429723739624,-0.5117760896682739,-0.00156129221431911,0.26241520047187805,0.26238685846328735,0.4250228703022003,39962.0,1619774341419.08,681093.0
1379736.0,0.0,24111.0,1619774341.0,419080.0,0.8218441418464818,-0.03332173863673681,179.9875030517578,15.06113338470459,21.05034637451172,-2.026393413543701,-2.0891435146331787,1.2756710052490234,8.339548110961914,0.31893253326416016,22.546228408813477,1.9009865522384644,38.28940200805664,0.02252429723739624,-0.5117760896682739,-0.00156129221431911,0.26241520047187805,0.26238685846328735,0.4250228703022003,39962.0,1619774341419.08,681094.0
1379738.0,0.0,24111.0,1619774341.0,419080.0,0.8218441418464818,-0.03332173863673681,179.9875030517578,15.06113338470459,21.05034637451172,-2.026393413543701,-2.0891435146331787,1.2756710052490234,8.339548110961914,0.31893253326416016,22.546228408813477,1.9009865522384644,38.28940200805664,0.02252429723739624,-0.5117760896682739,-0.00156129221431911,0.26241520047187805,0.26238685846328735,0.4250228703022003,39962.0,1619774341419.08,681095.0
1379740.0,0.0,24111.0,1619774341.0,419080.0,0.8218441418464818,-0.03332173863673681,179.9875030517578,15.06113338470459,21.05034637451172,-2.026393413543701,-2.0891435146331787,1.2756710052490234,8.339548110961914,0.31893253326416016,22.546228408813477,1.9009865522384644,38.28940200805664,0.02252429723739624,-0.5117760896682739,-0.00156129221431911,0.26241520047187805,0.26238685846328735,0.4250228703022003,39962.0,1619774341419.08,681096.0
1379742.0,0.0,24111.0,1619774341.0,419080.0,0.8218441418464818,-0.03332173863673681,179.9875030517578,15.06113338470459,21.05034637451172,-2.026393413543701,-2.0891435146331787,1.2756710052490234,8.339548110961914,0.31893253326416016,22.546228408813477,1.9009865522384644,38.28940200805664,0.02252429723739624,-0.5117760896682739,-0.00156129221431911,0.26241520047187805,0.26238685846328735,0.4250228703022003,39962.0,1619774341419.08,681097.0
1379744.0,0.0,24111.0,1619774341.0,419080.0,0.8218441418464818,-0.03332173863673681,179.9875030517578,15.06113338470459,21.05034637451172,-2.026393413543701,-2.0891435146331787,1.2756710052490234,8.339548110961914,0.31893253326416016,22.546228408813477,1.9009865522384644,38.28940200805664,0.02252429723739624,-0.5117760896682739,-0.00156129221431911,0.26241520047187805,0.26238685846328735,0.4250228703022003,39962.0,1619774341419.08,681098.0
1379746.0,0.0,24111.0,1619774341.0,479033.0,0.8218442797771651,-0.03332145318502938,180.09596252441406,14.826912879943848,21.17855453491211,-2.0192620754241943,5.991880893707275,4.057287693023682,-9.525908470153809,1.9992973804473877,22.560039520263672,1.5691665410995483,38.20883560180664,0.061744872480630875,0.20313909649848938,-0.0015716883353888988,0.2621845006942749,0.26215705275535583,0.4244714379310608,39962.0,1619774341479.033,681099.0
1379748.0,0.0,24111.0,1619774341.0,479033.0,0.8218442797771651,-0.03332145318502938,180.09596252441406,14.826912879943848,21.17855453491211,-2.0192620754241943,5.991880893707275,4.057287693023682,-9.525908470153809,1.9992973804473877,22.560039520263672,1.5691665410995483,38.20883560180664,0.061744872480630875,0.20313909649848938,-0.0015716883353888988,0.2621845006942749,0.26215705275535583,0.4244714379310608,39962.0,1619774341479.033,681100.0
1379750.0,0.0,24111.0,1619774341.0,479033.0,0.8218442797771651,-0.03332145318502938,180.09596252441406,14.826912879943848,21.17855453491211,-2.0192620754241943,5.991880893707275,4.057287693023682,-9.525908470153809,1.9992973804473877,22.560039520263672,1.5691665410995483,38.20883560180664,0.061744872480630875,0.20313909649848938,-0.0015716883353888988,0.2621845006942749,0.26215705275535583,0.4244714379310608,39962.0,1619774341479.033,681101.0
1379752.0,0.0,24111.0,1619774341.0,479033.0,0.8218442797771651,-0.03332145318502938,180.09596252441406,14.826912879943848,21.17855453491211,-2.0192620754241943,5.991880893707275,4.057287693023682,-9.525908470153809,1.9992973804473877,22.560039520263672,1.5691665410995483,38.20883560180664,0.061744872480630875,0.20313909649848938,-0.0015716883353888988,0.2621845006942749,0.26215705275535583,0.4244714379310608,39962.0,1619774341479.033,681102.0
1379754.0,0.0,24111.0,1619774341.0,479033.0,0.8218442797771651,-0.03332145318502938,180.09596252441406,14.826912879943848,21.17855453491211,-2.0192620754241943,5.991880893707275,4.057287693023682,-9.525908470153809,1.9992973804473877,22.560039520263672,1.5691665410995483,38.20883560180664,0.061744872480630875,0.20313909649848938,-0.0015716883353888988,0.2621845006942749,0.26215705275535583,0.4244714379310608,39962.0,1619774341479.033,681103.0
1379756.0,0.0,24111.0,1619774341.0,479033.0,0.8218442797771651,-0.03332145318502938,180.09596252441406,14.826912879943848,21.17855453491211,-2.0192620754241943,5.991880893707275,4.057287693023682,-9.525908470153809,1.9992973804473877,22.560039520263672,1.5691665410995483,38.20883560180664,0.061744872480630875,0.20313909649848938,-0.0015716883353888988,0.2621845006942749,0.26215705275535583,0.4244714379310608,39962.0,1619774341479.033,681104.0
1379758.0,0.0,24111.0,1619774341.0,539034.0,0.8218444182772399,-0.03332116113679693,180.2139892578125,14.65793228149414,21.30506706237793,-1.9458898305892944,-5.2960734367370605,8.528053283691406,-4.772676944732666,1.5790470838546753,22.389575958251953,1.5132008790969849,38.270347595214844,-0.1318495124578476,0.17805524170398712,0.06588774919509888,0.2624754309654236,0.2624472677707672,0.42521873116493225,39962.0,1619774341539.034,681105.0
1379760.0,0.0,24111.0,1619774341.0,539034.0,0.8218444182772399,-0.03332116113679693,180.2139892578125,14.65793228149414,21.30506706237793,-1.9458898305892944,-5.2960734367370605,8.528053283691406,-4.772676944732666,1.5790470838546753,22.389575958251953,1.5132008790969849,38.270347595214844,-0.1318495124578476,0.17805524170398712,0.06588774919509888,0.2624754309654236,0.2624472677707672,0.42521873116493225,39962.0,1619774341539.034,681106.0
1379762.0,0.0,24111.0,1619774341.0,539034.0,0.8218444182772399,-0.03332116113679693,180.2139892578125,14.65793228149414,21.30506706237793,-1.9458898305892944,-5.2960734367370605,8.528053283691406,-4.772676944732666,1.5790470838546753,22.389575958251953,1.5132008790969849,38.270347595214844,-0.1318495124578476,0.17805524170398712,0.06588774919509888,0.2624754309654236,0.2624472677707672,0.42521873116493225,39962.0,1619774341539.034,681107.0
